[
    {
      "url": "http://speedtest2.niutk.com:8080/speedtest/upload.php",
      "lat": "31.4912",
      "lon": "120.3119",
      "distance": 632,
      "name": "Wu Xi",
      "country": "China",
      "cc": "CN",
      "sponsor": "江苏联通",
      "id": "45170",
      "preferred": 0,
      "https_functional": 1,
      "host": "speedtest2.niutk.com.prod.hosts.ooklaserver.net:8080",
      "force_ping_select": 1
    },
    {
      "url": "http://5gzhenjiang.speedtest.jsinfo.net:8080/speedtest/upload.php",
      "lat": "32.2069",
      "lon": "119.4490",
      "distance": 570,
      "name": "Zhenjiang",
      "country": "China",
      "cc": "CN",
      "sponsor": "浙江电信",
      "id": "36663",
      "preferred": 0,
      "https_functional": 1,
      "host": "5gzhenjiang.speedtest.jsinfo.net.prod.hosts.ooklaserver.net:8080"
    },
    {
      "url": "http://5gnanjing.speedtest.jsinfo.net:8080/speedtest/upload.php",
      "lat": "32.0500",
      "lon": "118.7667",
      "distance": 570,
      "name": "Nanjing",
      "country": "China",
      "cc": "CN",
      "sponsor": "江苏电信",
      "id": "26352",
      "preferred": 0,
      "host": "5gnanjing.speedtest.jsinfo.net:8080"
    },
    {
      "url": "http://4gsuzhou1.speedtest.jsinfo.net:8080/speedtest/upload.php",
      "lat": "31.2990",
      "lon": "120.5853",
      "distance": 650,
      "name": "Suzhou",
      "country": "China",
      "cc": "CN",
      "sponsor": "江苏电信2",
      "id": "5396",
      "preferred": 0,
      "https_functional": 1,
      "host": "4gsuzhou1.speedtest.jsinfo.net.prod.hosts.ooklaserver.net"
    },
    {
      "url": "http://cesu-hz.zjtelecom.com.cn:8080/speedtest/upload.php",
      "lat": "30.2741",
      "lon": "120.1552",
      "distance": 710,
      "name": "HangZhou",
      "country": "China",
      "cc": "CN",
      "sponsor": "浙江电信",
      "id": "59386",
      "preferred": 0,
      "https_functional": 1,
      "host": "cesu-hz.zjtelecom.com.cn.prod.hosts.ooklaserver.net:8080"
    },
    {
      "url": "http://speedtest.wasu.cn:8080/speedtest/upload.php",
      "lat": "30.2741",
      "lon": "120.1552",
      "distance": 710,
      "name": "Hangzhou",
      "country": "China",
      "cc": "CN",
      "sponsor": "浙江电信2",
      "id": "63018",
      "preferred": 0,
      "https_functional": 1,
      "host": "speedtest.wasu.cn.prod.hosts.ooklaserver.net:8080"
    },
    {
      "url": "http://mycuspeed.169ol.com:8080/speedtest/upload.php",
      "lat": "31.4554",
      "lon": "104.6693",
      "distance": 717,
      "name": "Mianyang",
      "country": "China",
      "cc": "CN",
      "sponsor": "四川联通",
      "id": "44819",
      "preferred": 0,
      "https_functional": 1,
      "host": "mycuspeed.169ol.com:8080"
    },
    {
      "url": "http://cuscspeed.169ol.com:8080/speedtest/upload.php",
      "lat": "30.6586",
      "lon": "104.0647",
      "distance": 717,
      "name": "成都",
      "country": "China",
      "cc": "CN",
      "sponsor": "四川联通2",
      "id": "30173",
      "preferred": 0,
      "https_functional": 1,
      "host": "cuscspeed.169ol.com"
    },
    {
      "url": "https://speedtest.dukekunshan.edu.cn:8080/speedtest/upload.php",
      "lat": "31.1",
      "lon": "120.37",
      "distance": 717,
      "name": "Kunshan",
      "country": "China",
      "cc": "CN",
      "sponsor": "江苏教育网",
      "id": "44950",
      "preferred": 0,
      "https_functional": 1,
      "host": "speedtest.dukekunshan.edu.cn:8080"
    },
    {
      "url": "http://node-124-160-78-98.speedtest.cn:51080/speedtest/upload.php",
      "lat": "30.275258",
      "lon": "120.17604",
      "distance": 717,
      "name": "Hangzhou",
      "country": "China",
      "cc": "CN",
      "sponsor": "浙江联通",
      "id": "2853",
      "preferred": 0,
      "https_functional": 1,
      "host": "node-124-160-78-98.speedtest.cn:51080"
    },
    {
      "url": "https://node-59-175-206-86.speedtest.cn:51090/speedtest/upload.php",
      "lat": "30.545575",
      "lon": "114.339263",
      "distance": 717,
      "name": "Wuhan",
      "country": "China",
      "cc": "CN",
      "sponsor": "湖北电信",
      "id": "58735",
      "preferred": 0,
      "https_functional": 1,
      "host": "node-59-175-206-86.speedtest.cn:51090"
    },
    {
      "url": "https://vipspeedtest8.wuhan.net.cn:8080/speedtest/upload.php",
      "lat": "30.545575",
      "lon": "114.339263",
      "distance": 717,
      "name": "Wuhan",
      "country": "China",
      "cc": "CN",
      "sponsor": "湖北电信2",
      "id": "62580",
      "preferred": 0,
      "https_functional": 1,
      "host": "vipspeedtest8.wuhan.net.cn:8080"
    },
    {
      "url": "http://cesu-nb.zjtelecom.com.cn:8080/speedtest/upload.php",
      "lat": "29.8683",
      "lon": "121.5440",
      "distance": 763,
      "name": "NingBo",
      "country": "China",
      "cc": "CN",
      "sponsor": "浙江电信3",
      "id": "59387",
      "preferred": 0,
      "https_functional": 1,
      "host": "cesu-nb.zjtelecom.com.cn.prod.hosts.ooklaserver.net:8080"
    },
    {
      "url": "https://node-124-93-198-18.speedtest.cn:51090/speedtest/upload.php",
      "lat": "38.925486",
      "lon": "121.63966",
      "distance": 833,
      "name": "Dalian",
      "country": "China",
      "cc": "CN",
      "sponsor": "辽宁电信",
      "id": "7403",
      "preferred": 0,
      "https_functional": 1,
      "host": "node-124-93-198-18.speedtest.cn:8080"
    },
    {
      "url": "https://node-36-250-1-90.speedtest.cn:51090/speedtest/upload.php",
      "lat": "26.060537",
      "lon": "119.245519",
      "distance": 833,
      "name": "Fuzhou",
      "country": "China",
      "cc": "CN",
      "sponsor": "福建电信",
      "id": "3805",
      "preferred": 0,
      "https_functional": 1,
      "host": "node-36-250-1-90.speedtest.cn:51090"
    },
    {
      "url": "https://node-218-26-162-114.speedtest.cn:51090/speedtest/upload.php",
      "lat": "37.86006",
      "lon": "112.56086",
      "distance": 833,
      "name": "Taiyuan",
      "country": "China",
      "cc": "CN",
      "sponsor": "山西联通",
      "id": "25204",
      "preferred": 0,
      "https_functional": 1,
      "host": "node-218-26-162-114.speedtest.cn:51090"
    },
    {
      "url": "http://speedtest1.sc.189.cn.prod.hosts.ooklaserver.net:8080/speedtest/upload.php",
      "lat": "30.4",
      "lon": "104.04",
      "distance": 833,
      "name": "Chendu",
      "country": "China",
      "cc": "CN",
      "sponsor": "四川电信",
      "id": "54169",
      "preferred": 0,
      "https_functional": 1,
      "host": "speedtest1.sc.189.cn.prod.hosts.ooklaserver.net:8080"
    },
    {
      "url": "http://speedtest1.sc.189.cn:8080/speedtest/upload.php",
      "lat": "30.4",
      "lon": "104.04",
      "distance": 841,
      "name": "Chengdu",
      "country": "China",
      "cc": "CN",
      "sponsor": "四川联通",
      "id": "27732",
      "preferred": 0,
      "https_functional": 1,
      "host": "speedtest1.sc.189.cn:8080"
    },
    {
      "url": "https://cuscspeed.169ol.com.prod.hosts.ooklaserver.net:8080/speedtest/upload.php",
      "lat": "30.4",
      "lon": "104.04",
      "distance": 878,
      "name": "Chengdu",
      "country": "China",
      "cc": "CN",
      "sponsor": "四川联通2",
      "id": "11073",
      "preferred": 0,
      "https_functional": 1,
      "host": "cuscspeed.169ol.com.prod.hosts.ooklaserver.net"
    },
    {
        "url": "https://node-125-76-88-10.speedtest.cn:51090/speedtest/upload.php",
        "lat": "36.060587",
        "lon": "103.889147",
        "distance": 878,
        "name": "Lanzhou",
        "country": "China",
        "cc": "CN",
        "sponsor": "甘肃电信",
        "id": "11073",
        "preferred": 0,
        "https_functional": 1,
        "host": "node-125-76-88-10.speedtest.cn"
      },
      {
        "url": "http://node-111-42-93-106.speedtest.cn:51080/speedtest/upload.php",
        "lat": "45.44",
        "lon": "126.36",
        "distance": 878,
        "name": "Suihua",
        "country": "China",
        "cc": "CN",
        "sponsor": "黑龙江广电",
        "id": "11073",
        "preferred": 0,
        "https_functional": 1,
        "host": "node-111-42-93-106.speedtest.cn"
      },
      {
        "url": "http://node-111-42-93-105.speedtest.cn:51090/speedtest/upload.php",
        "lat": "45.44",
        "lon": "126.36",
        "distance": 878,
        "name": "Suihua",
        "country": "China",
        "cc": "CN",
        "sponsor": "黑龙江广电2",
        "id": "11073",
        "preferred": 0,
        "https_functional": 1,
        "host": "node-111-42-93-105.speedtest.cn"
      },
      {
        "url": "http://hntelecom5g.cn:8080/speedtest/upload.php",
        "lat": "28.12",
        "lon": "112.59",
        "distance": 878,
        "name": "Changsha",
        "country": "China",
        "cc": "CN",
        "sponsor": "湖南电信",
        "id": "11073",
        "preferred": 0,
        "https_functional": 1,
        "host": "hntelecom5g.cn:8080"
      }
  ]